{"businesses": [{"id": "uDoLHcTTMckTjlsXaHM0gQ", "alias": "schnitzelbank-heidelberg", "name": "Schnitzelbank", "image_url": "https://s3-media4.fl.yelpcdn.com/bphoto/eCODfXI18KHzFgS5pSzCOg/o.jpg", "is_closed": false, "url": "https://www.yelp.de/biz/schnitzelbank-heidelberg?adjust_creative=wpmf2GNsNi2Y2eWo6_K1VQ&utm_campaign=yelp_api_v3&utm_medium=api_v3_business_search&utm_source=wpmf2GNsNi2Y2eWo6_K1VQ", "review_count": 112, "categories": [{"alias": "wine_bars", "title": "Weinbar"}, {"alias": "schnitzel", "title": "Schnitzel"}, {"alias": "baden", "title": "Badisch"}], "rating": 4.5, "coordinates": {"latitude": 49.41148, "longitude": 8.70232}, "transactions": [], "price": "\u20ac\u20ac", "location": {"address1": "Bauamtsgasse 7", "address2": "", "address3": "", "city": "Heidelberg", "zip_code": "69117", "country": "DE", "state": "BW", "display_address": ["Bauamtsgasse 7", "69117 Heidelberg"]}, "phone": "+49622121189", "display_phone": "06221 21189", "distance": 1286.2567508470243}, {"id": "gxDEgr0NkiE_V8LHru7CzQ", "alias": "moes-roadhouse-heidelberg", "name": "Moe\'s Roadhouse", "image_url": "https://s3-media3.fl.yelpcdn.com/bphoto/hxU_obILiRT1qNu9cZ3CxA/o.jpg", "is_closed": false, "url": "https://www.yelp.de/biz/moes-roadhouse-heidelberg?adjust_creative=wpmf2GNsNi2Y2eWo6_K1VQ&utm_campaign=yelp_api_v3&utm_medium=api_v3_business_search&utm_source=wpmf2GNsNi2Y2eWo6_K1VQ", "review_count": 23, "categories": [{"alias": "tradamerican", "title": "Amerikanisch (Traditionell)"}, {"alias": "burgers", "title": "Burger"}], "rating": 4.0, "coordinates": {"latitude": 49.40776, "longitude": 8.67587}, "transactions": [], "price": "\u20ac\u20ac", "location": {"address1": "Bergheimerstr. 147", "address2": null, "address3": "", "city": "Heidelberg", "zip_code": "69115", "country": "DE", "state": "BW", "display_address": ["Bergheimerstr. 147", "69115 Heidelberg"]}, "phone": "+4962216536068", "display_phone": "06221 6536068", "distance": 1220.0328472187616}, {"id": "MSTOlhEuW6oYoz6qsvSBxw", "alias": "vetters-alt-heidelberger-brauhaus-heidelberg", "name": "Vetter\'s Alt-Heidelberger Brauhaus", "image_url": "https://s3-media2.fl.yelpcdn.com/bphoto/tdh00wmxH_-ItdLW-xw9SA/o.jpg", "is_closed": false, "url": "https://www.yelp.de/biz/vetters-alt-heidelberger-brauhaus-heidelberg?adjust_creative=wpmf2GNsNi2Y2eWo6_K1VQ&utm_campaign=yelp_api_v3&utm_medium=api_v3_business_search&utm_source=wpmf2GNsNi2Y2eWo6_K1VQ", "review_count": 110, "categories": [{"alias": "breweries", "title": "Brauerei"}, {"alias": "german", "title": "Deutsch"}], "rating": 4.0, "coordinates": {"latitude": 49.41271, "longitude": 8.70969}, "transactions": [], "price": "\u20ac\u20ac", "location": {"address1": "Steingasse 9", "address2": null, "address3": null, "city": "Heidelberg", "zip_code": "69117", "country": "DE", "state": "BW", "display_address": ["Steingasse 9", "69117 Heidelberg"]}, "phone": "+496221165850", "display_phone": "06221 165850", "distance": 1761.5900832642662}, {"id": "m8096H3q1vbR6T5bq8IAUg", "alias": "soban-heidelberg", "name": "Soban", "image_url": "https://s3-media2.fl.yelpcdn.com/bphoto/krQVReWAU7cbzncXeXW8cw/o.jpg", "is_closed": false, "url": "https://www.yelp.de/biz/soban-heidelberg?adjust_creative=wpmf2GNsNi2Y2eWo6_K1VQ&utm_campaign=yelp_api_v3&utm_medium=api_v3_business_search&utm_source=wpmf2GNsNi2Y2eWo6_K1VQ", "review_count": 27, "categories": [{"alias": "korean", "title": "Koreanisch"}], "rating": 4.0, "coordinates": {"latitude": 49.41138, "longitude": 8.71165}, "transactions": [], "price": "\u20ac\u20ac", "location": {"address1": "Zwingerstr.21", "address2": "", "address3": "", "city": "Heidelberg", "zip_code": "69117", "country": "DE", "state": "BW", "display_address": ["Zwingerstr.21", "69117 Heidelberg"]}, "phone": "+4962216521752", "display_phone": "06221 6521752", "distance": 1783.095467367556}, {"id": "ZhUCYLyXtfHanZcp6i1mEQ", "alias": "best-currywurst-heidelberg", "name": "Best Currywurst", "image_url": "https://s3-media4.fl.yelpcdn.com/bphoto/vpulYrs06XMr4A624wJtlA/o.jpg", "is_closed": false, "url": "https://www.yelp.de/biz/best-currywurst-heidelberg?adjust_creative=wpmf2GNsNi2Y2eWo6_K1VQ&utm_campaign=yelp_api_v3&utm_medium=api_v3_business_search&utm_source=wpmf2GNsNi2Y2eWo6_K1VQ", "review_count": 4, "categories": [{"alias": "currysausage", "title": "Currywurst"}], "rating": 5.0, "coordinates": {"latitude": 49.4087601, "longitude": 8.6922598}, "transactions": [], "price": "\u20ac", "location": {"address1": "Rohrbacher Str. 2", "address2": "", "address3": "", "city": "Heidelberg", "zip_code": "69115", "country": "DE", "state": "BW", "display_address": ["Rohrbacher Str. 2", "69115 Heidelberg"]}, "phone": "+494962216544940", "display_phone": "04962 216544940", "distance": 703.11933703484}, {"id": "rzWXwANkSMsxZtCgGz-Cjg", "alias": "sahara-heidelberg", "name": "Sahara", "image_url": "https://s3-media1.fl.yelpcdn.com/bphoto/09l84L-sdOadZccKwQTm0Q/o.jpg", "is_closed": false, "url": "https://www.yelp.de/biz/sahara-heidelberg?adjust_creative=wpmf2GNsNi2Y2eWo6_K1VQ&utm_campaign=yelp_api_v3&utm_medium=api_v3_business_search&utm_source=wpmf2GNsNi2Y2eWo6_K1VQ", "review_count": 46, "categories": [{"alias": "lebanese", "title": "Libanesisch"}], "rating": 4.5, "coordinates": {"latitude": 49.41185, "longitude": 8.70793}, "transactions": [], "price": "\u20ac\u20ac", "location": {"address1": "Hauptstr.167", "address2": "", "address3": "", "city": "Heidelberg", "zip_code": "69117", "country": "DE", "state": "BW", "display_address": ["Hauptstr.167", "69117 Heidelberg"]}, "phone": "+4962216595853", "display_phone": "06221 6595853", "distance": 1596.7786168694204}, {"id": "bZBVVfleHuVYIafBat2MNA", "alias": "kurf\u00fcrstenstube-heidelberg", "name": "Kurf\u00fcrstenstube", "image_url": "https://s3-media3.fl.yelpcdn.com/bphoto/EjaWeg7lwjOUPNHN94EhSQ/o.jpg", "is_closed": false, "url": "https://www.yelp.de/biz/kurf%C3%BCrstenstube-heidelberg?adjust_creative=wpmf2GNsNi2Y2eWo6_K1VQ&utm_campaign=yelp_api_v3&utm_medium=api_v3_business_search&utm_source=wpmf2GNsNi2Y2eWo6_K1VQ", "review_count": 8, "categories": [{"alias": "international", "title": "International"}], "rating": 5.0, "coordinates": {"latitude": 49.40816, "longitude": 8.69562}, "transactions": [], "location": {"address1": "Friedrich-Ebert-Anlage 1", "address2": "", "address3": "", "city": "Heidelberg", "zip_code": "69117", "country": "DE", "state": "BW", "display_address": ["Friedrich-Ebert-Anlage 1", "69117 Heidelberg"]}, "phone": "+4962215150", "display_phone": "06221 5150", "distance": 708.1528873933487}, {"id": "zgVCXK8459Afwk8cpg0tOQ", "alias": "maxbar-heidelberg", "name": "Maxbar", "image_url": "https://s3-media1.fl.yelpcdn.com/bphoto/KZSSYPiCWkACh5Bp41ic2w/o.jpg", "is_closed": false, "url": "https://www.yelp.de/biz/maxbar-heidelberg?adjust_creative=wpmf2GNsNi2Y2eWo6_K1VQ&utm_campaign=yelp_api_v3&utm_medium=api_v3_business_search&utm_source=wpmf2GNsNi2Y2eWo6_K1VQ", "review_count": 19, "categories": [{"alias": "pubs", "title": "Pub"}, {"alias": "bistros", "title": "Bistro"}, {"alias": "cafes", "title": "Caf\u00e9"}], "rating": 4.0, "coordinates": {"latitude": 49.4124, "longitude": 8.71037}, "transactions": [], "price": "\u20ac", "location": {"address1": "Marktplatz 5", "address2": null, "address3": null, "city": "Heidelberg", "zip_code": "69117", "country": "DE", "state": "BW", "display_address": ["Marktplatz 5", "69117 Heidelberg"]}, "phone": "+49622124419", "display_phone": "06221 24419", "distance": 1771.7539538863512}, {"id": "-DTQReGGgZqaRGRoXdk5KA", "alias": "thai-restaurant-thanaphon-heidelberg", "name": "Thai Restaurant Thanaphon", "image_url": "https://s3-media4.fl.yelpcdn.com/bphoto/33Ql7IfoN6yLnhNpkODysg/o.jpg", "is_closed": false, "url": "https://www.yelp.de/biz/thai-restaurant-thanaphon-heidelberg?adjust_creative=wpmf2GNsNi2Y2eWo6_K1VQ&utm_campaign=yelp_api_v3&utm_medium=api_v3_business_search&utm_source=wpmf2GNsNi2Y2eWo6_K1VQ", "review_count": 28, "categories": [{"alias": "thai", "title": "Thail\u00e4ndisch"}], "rating": 4.0, "coordinates": {"latitude": 49.40587, "longitude": 8.69022}, "transactions": [], "price": "\u20ac\u20ac", "location": {"address1": "Bahnhofstr. 19", "address2": null, "address3": null, "city": "Heidelberg", "zip_code": "69115", "country": "DE", "state": "BW", "display_address": ["Bahnhofstr. 19", "69115 Heidelberg"]}, "phone": "+496221181008", "display_phone": "06221 181008", "distance": 387.72355052660913}, {"id": "27VpuWMdzgka63qxS4r51w", "alias": "exotica-heidelberg", "name": "Exotica", "image_url": "https://s3-media2.fl.yelpcdn.com/bphoto/rAT3JN2AmZA18gP2WdJwgA/o.jpg", "is_closed": false, "url": "https://www.yelp.de/biz/exotica-heidelberg?adjust_creative=wpmf2GNsNi2Y2eWo6_K1VQ&utm_campaign=yelp_api_v3&utm_medium=api_v3_business_search&utm_source=wpmf2GNsNi2Y2eWo6_K1VQ", "review_count": 18, "categories": [{"alias": "salad", "title": "Salat"}, {"alias": "juicebars", "title": "Smoothies & Saftbar"}, {"alias": "sandwiches", "title": "Sandwich & Croque"}], "rating": 4.5, "coordinates": {"latitude": 49.4082, "longitude": 8.69203}, "transactions": [], "price": "\u20ac", "location": {"address1": "Rohrbacherstr. 8", "address2": null, "address3": null, "city": "Heidelberg", "zip_code": "69115", "country": "DE", "state": "BW", "display_address": ["Rohrbacherstr. 8", "69115 Heidelberg"]}, "phone": "+496221168960", "display_phone": "06221 168960", "distance": 639.5608050187578}, {"id": "mptmo90O7IYLTQqvyxcUhw", "alias": "hans-im-gl\u00fcck-heidelberg", "name": "Hans Im Gl\u00fcck", "image_url": "https://s3-media1.fl.yelpcdn.com/bphoto/9WMX9FyNwIwAqch74To12w/o.jpg", "is_closed": false, "url": "https://www.yelp.de/biz/hans-im-gl%C3%BCck-heidelberg?adjust_creative=wpmf2GNsNi2Y2eWo6_K1VQ&utm_campaign=yelp_api_v3&utm_medium=api_v3_business_search&utm_source=wpmf2GNsNi2Y2eWo6_K1VQ", "review_count": 18, "categories": [{"alias": "burgers", "title": "Burger"}, {"alias": "salad", "title": "Salat"}, {"alias": "cocktailbars", "title": "Cocktailbar"}], "rating": 4.5, "coordinates": {"latitude": 49.4119584224777, "longitude": 8.70937079747079}, "transactions": [], "price": "\u20ac\u20ac", "location": {"address1": "Hauptstr. 187", "address2": "", "address3": "", "city": "Heidelberg", "zip_code": "69117", "country": "DE", "state": "BW", "display_address": ["Hauptstr. 187", "69117 Heidelberg"]}, "phone": "+4962216549065", "display_phone": "06221 6549065", "distance": 1684.6319021088573}, {"id": "Iqreg2QoMu69FwVHdKCGIg", "alias": "simplicissimus-heidelberg", "name": "Simplicissimus", "image_url": "https://s3-media2.fl.yelpcdn.com/bphoto/ZcADmUdVj5K-V5xu8VqOFA/o.jpg", "is_closed": false, "url": "https://www.yelp.de/biz/simplicissimus-heidelberg?adjust_creative=wpmf2GNsNi2Y2eWo6_K1VQ&utm_campaign=yelp_api_v3&utm_medium=api_v3_business_search&utm_source=wpmf2GNsNi2Y2eWo6_K1VQ", "review_count": 11, "categories": [{"alias": "german", "title": "Deutsch"}], "rating": 5.0, "coordinates": {"latitude": 49.41126, "longitude": 8.7096699}, "transactions": [], "price": "\u20ac\u20ac\u20ac\u20ac", "location": {"address1": "Ingrimstr. 16", "address2": null, "address3": null, "city": "Heidelberg", "zip_code": "69117", "country": "DE", "state": "BW", "display_address": ["Ingrimstr. 16", "69117 Heidelberg"]}, "phone": "+4962216732588", "display_phone": "06221 6732588", "distance": 1658.3731834136124}, {"id": "zwHTYxTQhyq7A6BJAJxlqg", "alias": "lowenbrau-heidelberg", "name": "Lowenbrau", "image_url": "https://s3-media2.fl.yelpcdn.com/bphoto/-MuHxDO_QxE9Oui5z8pzgg/o.jpg", "is_closed": false, "url": "https://www.yelp.de/biz/lowenbrau-heidelberg?adjust_creative=wpmf2GNsNi2Y2eWo6_K1VQ&utm_campaign=yelp_api_v3&utm_medium=api_v3_business_search&utm_source=wpmf2GNsNi2Y2eWo6_K1VQ", "review_count": 6, "categories": [{"alias": "german", "title": "Deutsch"}], "rating": 4.5, "coordinates": {"latitude": 49.4116287, "longitude": 8.7051601}, "transactions": [], "price": "\u20ac\u20ac", "location": {"address1": "Hauptstr. 127", "address2": "", "address3": "", "city": "Heidelberg", "zip_code": "69117", "country": "DE", "state": "BW", "display_address": ["Hauptstr. 127", "69117 Heidelberg"]}, "phone": "+49622128450", "display_phone": "06221 28450", "distance": 1436.0235970554818}, {"id": "5oPDcHYFbIYhCKrp7bUcQg", "alias": "arbil-restaurant-heidelberg", "name": "Arbil Restaurant", "image_url": "https://s3-media4.fl.yelpcdn.com/bphoto/frICP5bVOXAm87vTl8XL_Q/o.jpg", "is_closed": false, "url": "https://www.yelp.de/biz/arbil-restaurant-heidelberg?adjust_creative=wpmf2GNsNi2Y2eWo6_K1VQ&utm_campaign=yelp_api_v3&utm_medium=api_v3_business_search&utm_source=wpmf2GNsNi2Y2eWo6_K1VQ", "review_count": 6, "categories": [{"alias": "turkish", "title": "T\u00fcrkisch"}, {"alias": "persian", "title": "Persisch"}], "rating": 3.5, "coordinates": {"latitude": 49.40876, "longitude": 8.6922599}, "transactions": [], "location": {"address1": "Rohrbacher Str. 2", "address2": "", "address3": "", "city": "Heidelberg", "zip_code": "69115", "country": "DE", "state": "BW", "display_address": ["Rohrbacher Str. 2", "69115 Heidelberg"]}, "phone": "+4962214319057", "display_phone": "06221 4319057", "distance": 699.7698360238761}, {"id": "Y7DmZAwLG4X1SJNMJ1ifnQ", "alias": "bodega-heidelberg", "name": "Bodega", "image_url": "https://s3-media4.fl.yelpcdn.com/bphoto/fC4oqWZnyUerkaDq3DOsBQ/o.jpg", "is_closed": false, "url": "https://www.yelp.de/biz/bodega-heidelberg?adjust_creative=wpmf2GNsNi2Y2eWo6_K1VQ&utm_campaign=yelp_api_v3&utm_medium=api_v3_business_search&utm_source=wpmf2GNsNi2Y2eWo6_K1VQ", "review_count": 61, "categories": [{"alias": "spanish", "title": "Spanisch"}, {"alias": "wine_bars", "title": "Weinbar"}], "rating": 4.5, "coordinates": {"latitude": 49.37785, "longitude": 8.69323}, "transactions": [], "price": "\u20ac\u20ac\u20ac", "location": {"address1": "Bierhelderweg 4", "address2": null, "address3": null, "city": "Heidelberg", "zip_code": "69126", "country": "DE", "state": "BW", "display_address": ["Bierhelderweg 4", "69126 Heidelberg"]}, "phone": "+496221374312", "display_phone": "06221 374312", "distance": 2752.472264737783}, {"id": "BndpwLRDCBBj30QGAzMaeg", "alias": "macaronnerie-heidelberg", "name": "Macaronnerie", "image_url": "https://s3-media1.fl.yelpcdn.com/bphoto/REHAoO3J_1WzxgIbGTNEVg/o.jpg", "is_closed": false, "url": "https://www.yelp.de/biz/macaronnerie-heidelberg?adjust_creative=wpmf2GNsNi2Y2eWo6_K1VQ&utm_campaign=yelp_api_v3&utm_medium=api_v3_business_search&utm_source=wpmf2GNsNi2Y2eWo6_K1VQ", "review_count": 9, "categories": [{"alias": "cafes", "title": "Caf\u00e9"}, {"alias": "bakeries", "title": "B\u00e4ckerei"}], "rating": 4.5, "coordinates": {"latitude": 49.4084702, "longitude": 8.69417}, "transactions": [], "price": "\u20ac\u20ac", "location": {"address1": "Sofienstr. 23", "address2": "", "address3": "", "city": "Heidelberg", "zip_code": "69115", "country": "DE", "state": "BW", "display_address": ["Sofienstr. 23", "69115 Heidelberg"]}, "phone": "+4962211866935", "display_phone": "06221 1866935", "distance": 703.3203852847597}, {"id": "WoRz-61YiT1wnVmt17t-Pg", "alias": "thanner-heidelberg", "name": "Thanner", "image_url": "https://s3-media3.fl.yelpcdn.com/bphoto/4cDT7Wd0DDJ7LA4TTzWvXw/o.jpg", "is_closed": false, "url": "https://www.yelp.de/biz/thanner-heidelberg?adjust_creative=wpmf2GNsNi2Y2eWo6_K1VQ&utm_campaign=yelp_api_v3&utm_medium=api_v3_business_search&utm_source=wpmf2GNsNi2Y2eWo6_K1VQ", "review_count": 24, "categories": [{"alias": "bistros", "title": "Bistro"}, {"alias": "beergarden", "title": "Biergarten"}, {"alias": "divebars", "title": "Kneipe"}], "rating": 3.5, "coordinates": {"latitude": 49.4078790572156, "longitude": 8.68593332275395}, "transactions": [], "price": "\u20ac", "location": {"address1": "Bergheimer Str. 71", "address2": null, "address3": null, "city": "Heidelberg", "zip_code": "69115", "country": "DE", "state": "BW", "display_address": ["Bergheimer Str. 71", "69115 Heidelberg"]}, "phone": "+49622125234", "display_phone": "06221 25234", "distance": 712.3597748343063}, {"id": "bxOZCfqoGD-TfhsjR8cL6A", "alias": "zafferano-heidelberg", "name": "Zafferano", "image_url": "https://s3-media1.fl.yelpcdn.com/bphoto/t270NJ3owWO4EJyyc3CAjQ/o.jpg", "is_closed": false, "url": "https://www.yelp.de/biz/zafferano-heidelberg?adjust_creative=wpmf2GNsNi2Y2eWo6_K1VQ&utm_campaign=yelp_api_v3&utm_medium=api_v3_business_search&utm_source=wpmf2GNsNi2Y2eWo6_K1VQ", "review_count": 23, "categories": [{"alias": "italian", "title": "Italienisch"}, {"alias": "pizza", "title": "Pizza"}], "rating": 4.5, "coordinates": {"latitude": 49.4078589, "longitude": 8.6894238}, "transactions": [], "price": "\u20ac\u20ac", "location": {"address1": "Poststr. 34", "address2": "", "address3": "", "city": "Heidelberg", "zip_code": "69115", "country": "DE", "state": "BW", "display_address": ["Poststr. 34", "69115 Heidelberg"]}, "phone": "+4962218730094", "display_phone": "06221 8730094", "distance": 612.7815761428188}, {"id": "ITlktf4kv9einUBrivQPJg", "alias": "cafe-tiefburg-heidelberg", "name": "Cafe Tiefburg", "image_url": "https://s3-media4.fl.yelpcdn.com/bphoto/qvBw5XfaXITfAjb7KWL81g/o.jpg", "is_closed": false, "url": "https://www.yelp.de/biz/cafe-tiefburg-heidelberg?adjust_creative=wpmf2GNsNi2Y2eWo6_K1VQ&utm_campaign=yelp_api_v3&utm_medium=api_v3_business_search&utm_source=wpmf2GNsNi2Y2eWo6_K1VQ", "review_count": 9, "categories": [{"alias": "cafes", "title": "Caf\u00e9"}, {"alias": "cakeshop", "title": "Konditorei"}], "rating": 5.0, "coordinates": {"latitude": 49.4276, "longitude": 8.68658}, "transactions": [], "price": "\u20ac\u20ac", "location": {"address1": "Steubenstr. 78", "address2": null, "address3": null, "city": "Heidelberg", "zip_code": "69121", "country": "DE", "state": "BW", "display_address": ["Steubenstr. 78", "69121 Heidelberg"]}, "phone": "+496221401080", "display_phone": "06221 401080", "distance": 2814.070477361115}, {"id": "f0kPLwr9FSWvkXx00eSEaQ", "alias": "kulturbrauerei-heidelberg-ag-heidelberg-3", "name": "Kulturbrauerei Heidelberg AG", "image_url": "https://s3-media2.fl.yelpcdn.com/bphoto/9dpG8AXvQHjry_JBQm5I2w/o.jpg", "is_closed": false, "url": "https://www.yelp.de/biz/kulturbrauerei-heidelberg-ag-heidelberg-3?adjust_creative=wpmf2GNsNi2Y2eWo6_K1VQ&utm_campaign=yelp_api_v3&utm_medium=api_v3_business_search&utm_source=wpmf2GNsNi2Y2eWo6_K1VQ", "review_count": 72, "categories": [{"alias": "german", "title": "Deutsch"}, {"alias": "hotels", "title": "Hotel"}, {"alias": "breweries", "title": "Brauerei"}], "rating": 4.0, "coordinates": {"latitude": 49.413, "longitude": 8.71356}, "transactions": [], "price": "\u20ac\u20ac", "location": {"address1": "Leyergasse 6", "address2": null, "address3": "", "city": "Heidelberg", "zip_code": "69117", "country": "DE", "state": "BW", "display_address": ["Leyergasse 6", "69117 Heidelberg"]}, "phone": "+496221502980", "display_phone": "06221 502980", "distance": 1995.9488527851713}, {"id": "-Gw0fXh0zlJXHVyXOAyn6w", "alias": "das-bootshaus-heidelberg", "name": "Das Bootshaus", "image_url": "https://s3-media1.fl.yelpcdn.com/bphoto/TawO8IsEP0rLOKTbJl8POA/o.jpg", "is_closed": false, "url": "https://www.yelp.de/biz/das-bootshaus-heidelberg?adjust_creative=wpmf2GNsNi2Y2eWo6_K1VQ&utm_campaign=yelp_api_v3&utm_medium=api_v3_business_search&utm_source=wpmf2GNsNi2Y2eWo6_K1VQ", "review_count": 35, "categories": [{"alias": "international", "title": "International"}, {"alias": "beergarden", "title": "Biergarten"}], "rating": 4.0, "coordinates": {"latitude": 49.40969, "longitude": 8.6814699}, "transactions": [], "price": "\u20ac\u20ac", "location": {"address1": "Schurmanstr. 2", "address2": null, "address3": null, "city": "Heidelberg", "zip_code": "69115", "country": "DE", "state": "BW", "display_address": ["Schurmanstr. 2", "69115 Heidelberg"]}, "phone": "+49622125396", "display_phone": "06221 25396", "distance": 1065.954181374815}, {"id": "W8OrvO3kzepRfey_Yt9Itg", "alias": "pizza-charisma-heidelberg", "name": "Pizza Charisma", "image_url": "https://s3-media2.fl.yelpcdn.com/bphoto/NAztVxl2UBUxelFKeqbnmg/o.jpg", "is_closed": false, "url": "https://www.yelp.de/biz/pizza-charisma-heidelberg?adjust_creative=wpmf2GNsNi2Y2eWo6_K1VQ&utm_campaign=yelp_api_v3&utm_medium=api_v3_business_search&utm_source=wpmf2GNsNi2Y2eWo6_K1VQ", "review_count": 14, "categories": [{"alias": "pizza", "title": "Pizza"}, {"alias": "kebab", "title": "D\u00f6ner & Kebab"}], "rating": 4.5, "coordinates": {"latitude": 49.40802, "longitude": 8.68735}, "transactions": [], "price": "\u20ac", "location": {"address1": "Bergheimer Str. 59", "address2": null, "address3": null, "city": "Heidelberg", "zip_code": "69115", "country": "DE", "state": "BW", "display_address": ["Bergheimer Str. 59", "69115 Heidelberg"]}, "phone": "+4962216533377", "display_phone": "06221 6533377", "distance": 677.2731787182887}, {"id": "tp-779XtDGleLcEOJOzoAw", "alias": "restaurant-qube-heidelberg", "name": "Restaurant Qube", "image_url": "https://s3-media2.fl.yelpcdn.com/bphoto/rAlkrFQAjI_26UhYlTgZHg/o.jpg", "is_closed": false, "url": "https://www.yelp.de/biz/restaurant-qube-heidelberg?adjust_creative=wpmf2GNsNi2Y2eWo6_K1VQ&utm_campaign=yelp_api_v3&utm_medium=api_v3_business_search&utm_source=wpmf2GNsNi2Y2eWo6_K1VQ", "review_count": 9, "categories": [{"alias": "german", "title": "Deutsch"}, {"alias": "international", "title": "International"}, {"alias": "mediterranean", "title": "Mediterran"}], "rating": 4.5, "coordinates": {"latitude": 49.4079803, "longitude": 8.6814492}, "transactions": [], "price": "\u20ac\u20ac\u20ac", "location": {"address1": "Bergheimer Str. 74", "address2": null, "address3": null, "city": "Heidelberg", "zip_code": "69115", "country": "DE", "state": "BW", "display_address": ["Bergheimer Str. 74", "69115 Heidelberg"]}, "phone": "+496221187990", "display_phone": "06221 187990", "distance": 935.0877802394218}, {"id": "-59BHunom_ze9lYGdN7wPA", "alias": "p11-caf\u00e9-heidelberg", "name": "P11 - Caf\u00e9", "image_url": "https://s3-media3.fl.yelpcdn.com/bphoto/PL_Zr6Yr7Jy3AXNdeosmqQ/o.jpg", "is_closed": false, "url": "https://www.yelp.de/biz/p11-caf%C3%A9-heidelberg?adjust_creative=wpmf2GNsNi2Y2eWo6_K1VQ&utm_campaign=yelp_api_v3&utm_medium=api_v3_business_search&utm_source=wpmf2GNsNi2Y2eWo6_K1VQ", "review_count": 44, "categories": [{"alias": "divebars", "title": "Kneipe"}, {"alias": "cafes", "title": "Caf\u00e9"}], "rating": 4.5, "coordinates": {"latitude": 49.4048928166975, "longitude": 8.68477821350098}, "transactions": [], "price": "\u20ac\u20ac", "location": {"address1": "Bahnhofstr. 63", "address2": "", "address3": "", "city": "Heidelberg", "zip_code": "69115", "country": "DE", "state": "BW", "display_address": ["Bahnhofstr. 63", "69115 Heidelberg"]}, "phone": "+4962216593223", "display_phone": "06221 6593223", "distance": 537.9313882951852}, {"id": "JIEt_oWOTfofK24Wqa6gkw", "alias": "restaurant-sudpfanne-heidelberg", "name": "Restaurant Sudpfanne", "image_url": "https://s3-media2.fl.yelpcdn.com/bphoto/dRwcOof6g55j21986Ra-Hg/o.jpg", "is_closed": false, "url": "https://www.yelp.de/biz/restaurant-sudpfanne-heidelberg?adjust_creative=wpmf2GNsNi2Y2eWo6_K1VQ&utm_campaign=yelp_api_v3&utm_medium=api_v3_business_search&utm_source=wpmf2GNsNi2Y2eWo6_K1VQ", "review_count": 24, "categories": [{"alias": "german", "title": "Deutsch"}, {"alias": "beergarden", "title": "Biergarten"}], "rating": 4.0, "coordinates": {"latitude": 49.41294, "longitude": 8.71387}, "transactions": [], "price": "\u20ac\u20ac", "location": {"address1": "Hauptstr. 223", "address2": null, "address3": null, "city": "Heidelberg", "zip_code": "69117", "country": "DE", "state": "BW", "display_address": ["Hauptstr. 223", "69117 Heidelberg"]}, "phone": "+496221163636", "display_phone": "06221 163636", "distance": 2012.7736754235682}, {"id": "8tWkKh0-7Ov2zydPxUHDlw", "alias": "restaurant-tati-heidelberg", "name": "Restaurant Tati", "image_url": "https://s3-media3.fl.yelpcdn.com/bphoto/HYlCiLzDxK9pgZshEtbM2A/o.jpg", "is_closed": false, "url": "https://www.yelp.de/biz/restaurant-tati-heidelberg?adjust_creative=wpmf2GNsNi2Y2eWo6_K1VQ&utm_campaign=yelp_api_v3&utm_medium=api_v3_business_search&utm_source=wpmf2GNsNi2Y2eWo6_K1VQ", "review_count": 17, "categories": [{"alias": "international", "title": "International"}, {"alias": "french", "title": "Franz\u00f6sisch"}], "rating": 4.0, "coordinates": {"latitude": 49.4078, "longitude": 8.67464}, "transactions": [], "price": "\u20ac\u20ac", "location": {"address1": "Bergheimer Str. 151", "address2": null, "address3": null, "city": "Heidelberg", "zip_code": "69115", "country": "DE", "state": "BW", "display_address": ["Bergheimer Str. 151", "69115 Heidelberg"]}, "phone": "+496221165859", "display_phone": "06221 165859", "distance": 1337.6360360141846}, {"id": "As_fzupWLLN6O-sGBkEgYQ", "alias": "baan-thai-heidelberg", "name": "Baan-Thai", "image_url": "https://s3-media2.fl.yelpcdn.com/bphoto/O_AMRUplxxeOvNK8pgel_Q/o.jpg", "is_closed": false, "url": "https://www.yelp.de/biz/baan-thai-heidelberg?adjust_creative=wpmf2GNsNi2Y2eWo6_K1VQ&utm_campaign=yelp_api_v3&utm_medium=api_v3_business_search&utm_source=wpmf2GNsNi2Y2eWo6_K1VQ", "review_count": 30, "categories": [{"alias": "thai", "title": "Thail\u00e4ndisch"}], "rating": 4.5, "coordinates": {"latitude": 49.3786, "longitude": 8.68687}, "transactions": [], "price": "\u20ac\u20ac", "location": {"address1": "Max-Joseph-Str. 1", "address2": null, "address3": null, "city": "Heidelberg", "zip_code": "69126", "country": "DE", "state": "BW", "display_address": ["Max-Joseph-Str. 1", "69126 Heidelberg"]}, "phone": "+496221302196", "display_phone": "06221 302196", "distance": 2673.0934786611347}, {"id": "b_gsRcukT_FTwfIs0zE16w", "alias": "phuket-heidelberg", "name": "Phuket", "image_url": "https://s3-media1.fl.yelpcdn.com/bphoto/BN6GvmL_XMFuetod7W3mUw/o.jpg", "is_closed": false, "url": "https://www.yelp.de/biz/phuket-heidelberg?adjust_creative=wpmf2GNsNi2Y2eWo6_K1VQ&utm_campaign=yelp_api_v3&utm_medium=api_v3_business_search&utm_source=wpmf2GNsNi2Y2eWo6_K1VQ", "review_count": 20, "categories": [{"alias": "thai", "title": "Thail\u00e4ndisch"}], "rating": 3.5, "coordinates": {"latitude": 49.41298, "longitude": 8.70977}, "transactions": [], "price": "\u20ac\u20ac", "location": {"address1": "Steingasse 1", "address2": null, "address3": null, "city": "Heidelberg", "zip_code": "69117", "country": "DE", "state": "BW", "display_address": ["Steingasse 1", "69117 Heidelberg"]}, "phone": "+4962216524003", "display_phone": "06221 6524003", "distance": 1779.6610702757803}, {"id": "s1dne_IqCtjmCuszTjLRqg", "alias": "kilimanjaro-heidelberg-2", "name": "Kilimanjaro", "image_url": "https://s3-media2.fl.yelpcdn.com/bphoto/6edrrXxYz4Xshc3CHAUaeA/o.jpg", "is_closed": false, "url": "https://www.yelp.de/biz/kilimanjaro-heidelberg-2?adjust_creative=wpmf2GNsNi2Y2eWo6_K1VQ&utm_campaign=yelp_api_v3&utm_medium=api_v3_business_search&utm_source=wpmf2GNsNi2Y2eWo6_K1VQ", "review_count": 25, "categories": [{"alias": "african", "title": "Afrikanisch"}], "rating": 4.5, "coordinates": {"latitude": 49.413, "longitude": 8.70764}, "transactions": [], "price": "\u20ac\u20ac", "location": {"address1": "Dreik\u00f6nigstr. 6", "address2": "", "address3": null, "city": "Heidelberg", "zip_code": "69117", "country": "DE", "state": "BW", "display_address": ["Dreik\u00f6nigstr. 6", "69117 Heidelberg"]}, "phone": "+4962217293939", "display_phone": "06221 7293939", "distance": 1668.0470687106506}, {"id": "xVl3cnxcQp3bwyU9BheVXQ", "alias": "yormas-heidelberg", "name": "Yorma\'s", "image_url": "https://s3-media4.fl.yelpcdn.com/bphoto/5nXyPLTKyg4f6FiSZ9NS6Q/o.jpg", "is_closed": false, "url": "https://www.yelp.de/biz/yormas-heidelberg?adjust_creative=wpmf2GNsNi2Y2eWo6_K1VQ&utm_campaign=yelp_api_v3&utm_medium=api_v3_business_search&utm_source=wpmf2GNsNi2Y2eWo6_K1VQ", "review_count": 1, "categories": [{"alias": "sandwiches", "title": "Sandwich & Croque"}], "rating": 5.0, "coordinates": {"latitude": 49.4038811644176, "longitude": 8.67607578635216}, "transactions": [], "price": "\u20ac", "location": {"address1": "Willy-Brandt-Platz 5", "address2": "", "address3": "", "city": "Heidelberg", "zip_code": "69115", "country": "DE", "state": "BW", "display_address": ["Willy-Brandt-Platz 5", "69115 Heidelberg"]}, "phone": "+49993189564391", "display_phone": "09931 89564391", "distance": 1106.6184998777844}, {"id": "OHeGfjL8LYN5UKz32ojs3A", "alias": "coyote-cafe-heidelberg", "name": "Coyote Cafe", "image_url": "https://s3-media2.fl.yelpcdn.com/bphoto/ygvwNxIzetwRLjSzz7Xdjw/o.jpg", "is_closed": false, "url": "https://www.yelp.de/biz/coyote-cafe-heidelberg?adjust_creative=wpmf2GNsNi2Y2eWo6_K1VQ&utm_campaign=yelp_api_v3&utm_medium=api_v3_business_search&utm_source=wpmf2GNsNi2Y2eWo6_K1VQ", "review_count": 9, "categories": [{"alias": "cafes", "title": "Caf\u00e9"}, {"alias": "tradamerican", "title": "Amerikanisch (Traditionell)"}, {"alias": "coffee", "title": "Coffee Shop"}], "rating": 4.5, "coordinates": {"latitude": 49.4116707862654, "longitude": 8.70616149009494}, "transactions": [], "price": "\u20ac\u20ac", "location": {"address1": "Hauptstr. 126", "address2": "", "address3": "", "city": "Heidelberg", "zip_code": "69117", "country": "DE", "state": "BW", "display_address": ["Hauptstr. 126", "69117 Heidelberg"]}, "phone": "+49622158x5194", "display_phone": "06221 58 ext. 5194", "distance": 1488.4348132647951}, {"id": "fdueifuNKRNLgYf03-TNUg", "alias": "river-caf\u00e9-heidelberg", "name": "River Caf\u00e9", "image_url": "https://s3-media2.fl.yelpcdn.com/bphoto/DplUXxeIKvtsyBfmdiCr-A/o.jpg", "is_closed": false, "url": "https://www.yelp.de/biz/river-caf%C3%A9-heidelberg?adjust_creative=wpmf2GNsNi2Y2eWo6_K1VQ&utm_campaign=yelp_api_v3&utm_medium=api_v3_business_search&utm_source=wpmf2GNsNi2Y2eWo6_K1VQ", "review_count": 14, "categories": [{"alias": "bars", "title": "Bar"}, {"alias": "international", "title": "International"}, {"alias": "cafes", "title": "Caf\u00e9"}], "rating": 4.0, "coordinates": {"latitude": 49.413998, "longitude": 8.693692}, "transactions": [], "price": "\u20ac\u20ac\u20ac", "location": {"address1": "Bergstr. 2", "address2": "", "address3": "", "city": "Heidelberg", "zip_code": "69120", "country": "DE", "state": "BW", "display_address": ["Bergstr. 2", "69120 Heidelberg"]}, "phone": "+4962217274651", "display_phone": "06221 7274651", "distance": 1292.110320739388}, {"id": "YgB2VHcHAKdI-Wc61hm2NQ", "alias": "yufkas-kebap-heidelberg", "name": "Yufkas Kebap", "image_url": "https://s3-media4.fl.yelpcdn.com/bphoto/Y3wBfqkaWK7n3i9FlLgxVg/o.jpg", "is_closed": false, "url": "https://www.yelp.de/biz/yufkas-kebap-heidelberg?adjust_creative=wpmf2GNsNi2Y2eWo6_K1VQ&utm_campaign=yelp_api_v3&utm_medium=api_v3_business_search&utm_source=wpmf2GNsNi2Y2eWo6_K1VQ", "review_count": 14, "categories": [{"alias": "kebab", "title": "D\u00f6ner & Kebab"}], "rating": 4.5, "coordinates": {"latitude": 49.41176, "longitude": 8.70953}, "transactions": [], "price": "\u20ac", "location": {"address1": "Hauptstr. 182", "address2": "", "address3": "", "city": "Heidelberg", "zip_code": "69117", "country": "DE", "state": "BW", "display_address": ["Hauptstr. 182", "69117 Heidelberg"]}, "phone": "+4962214859830", "display_phone": "06221 4859830", "distance": 1679.9788625813196}, {"id": "a-5BBNYn9NsyMInyCBeDXg", "alias": "schafheutle-heidelberg", "name": "Schafheutle", "image_url": "https://s3-media3.fl.yelpcdn.com/bphoto/WqkXSKxfuzdV18Y16pJkEw/o.jpg", "is_closed": false, "url": "https://www.yelp.de/biz/schafheutle-heidelberg?adjust_creative=wpmf2GNsNi2Y2eWo6_K1VQ&utm_campaign=yelp_api_v3&utm_medium=api_v3_business_search&utm_source=wpmf2GNsNi2Y2eWo6_K1VQ", "review_count": 20, "categories": [{"alias": "cafes", "title": "Caf\u00e9"}, {"alias": "cakeshop", "title": "Konditorei"}], "rating": 4.0, "coordinates": {"latitude": 49.41113, "longitude": 8.70247}, "transactions": [], "price": "\u20ac\u20ac", "location": {"address1": "Hauptstr. 94", "address2": null, "address3": null, "city": "Heidelberg", "zip_code": "69117", "country": "DE", "state": "BW", "display_address": ["Hauptstr. 94", "69117 Heidelberg"]}, "phone": "+49622114680", "display_phone": "06221 14680", "distance": 1253.9987058372046}, {"id": "rpkmiz07nYTCHdFWdwmzkg", "alias": "moschmosch-heidelberg", "name": "MoschMosch", "image_url": "https://s3-media4.fl.yelpcdn.com/bphoto/MBRDBzoAkGCLu1fXj-Z5aQ/o.jpg", "is_closed": false, "url": "https://www.yelp.de/biz/moschmosch-heidelberg?adjust_creative=wpmf2GNsNi2Y2eWo6_K1VQ&utm_campaign=yelp_api_v3&utm_medium=api_v3_business_search&utm_source=wpmf2GNsNi2Y2eWo6_K1VQ", "review_count": 70, "categories": [{"alias": "japanese", "title": "Japanisch"}], "rating": 3.5, "coordinates": {"latitude": 49.4116516, "longitude": 8.7066097}, "transactions": [], "price": "\u20ac\u20ac", "location": {"address1": "Hauptstr. 136", "address2": "", "address3": "", "city": "Heidelberg", "zip_code": "69117", "country": "DE", "state": "BW", "display_address": ["Hauptstr. 136", "69117 Heidelberg"]}, "phone": "+4962216509077", "display_phone": "06221 6509077", "distance": 1509.7518386026097}, {"id": "Oue0K2eSItXWBarjNhdJlg", "alias": "bay-jok-heidelberg", "name": "Bay Jok", "image_url": "https://s3-media3.fl.yelpcdn.com/bphoto/xaEi0vcJKEUxIQmp6bsh6w/o.jpg", "is_closed": false, "url": "https://www.yelp.de/biz/bay-jok-heidelberg?adjust_creative=wpmf2GNsNi2Y2eWo6_K1VQ&utm_campaign=yelp_api_v3&utm_medium=api_v3_business_search&utm_source=wpmf2GNsNi2Y2eWo6_K1VQ", "review_count": 9, "categories": [{"alias": "thai", "title": "Thail\u00e4ndisch"}], "rating": 5.0, "coordinates": {"latitude": 49.40777, "longitude": 8.67709}, "transactions": [], "location": {"address1": "Bergheimer Str. 137", "address2": "", "address3": null, "city": "Heidelberg", "zip_code": "69115", "country": "DE", "state": "BW", "display_address": ["Bergheimer Str. 137", "69115 Heidelberg"]}, "phone": "+4962214557891", "display_phone": "06221 4557891", "distance": 1175.472701999276}, {"id": "GBag07fjnjoTqCOWg6S7mw", "alias": "vater-rhein-heidelberg", "name": "Vater Rhein", "image_url": "https://s3-media2.fl.yelpcdn.com/bphoto/orlVbwnBnKdPAO33G6D2Eg/o.jpg", "is_closed": false, "url": "https://www.yelp.de/biz/vater-rhein-heidelberg?adjust_creative=wpmf2GNsNi2Y2eWo6_K1VQ&utm_campaign=yelp_api_v3&utm_medium=api_v3_business_search&utm_source=wpmf2GNsNi2Y2eWo6_K1VQ", "review_count": 15, "categories": [{"alias": "bars", "title": "Bar"}, {"alias": "german", "title": "Deutsch"}], "rating": 4.5, "coordinates": {"latitude": 49.4118, "longitude": 8.69811}, "transactions": [], "price": "\u20ac", "location": {"address1": "Untere Neckarstr. 20", "address2": null, "address3": null, "city": "Heidelberg", "zip_code": "69117", "country": "DE", "state": "BW", "display_address": ["Untere Neckarstr. 20", "69117 Heidelberg"]}, "phone": "+49622121371", "display_phone": "06221 21371", "distance": 1150.8667673707976}, {"id": "OJHupettA0SOx8Z04TVstw", "alias": "gastst\u00e4tte-zum-seppl-heidelberg", "name": "Gastst\u00e4tte Zum Seppl", "image_url": "https://s3-media1.fl.yelpcdn.com/bphoto/hNJ3aTeV8r27AAABiJ5MEw/o.jpg", "is_closed": false, "url": "https://www.yelp.de/biz/gastst%C3%A4tte-zum-seppl-heidelberg?adjust_creative=wpmf2GNsNi2Y2eWo6_K1VQ&utm_campaign=yelp_api_v3&utm_medium=api_v3_business_search&utm_source=wpmf2GNsNi2Y2eWo6_K1VQ", "review_count": 8, "categories": [{"alias": "breweries", "title": "Brauerei"}, {"alias": "gastropubs", "title": "Wirtshaus"}], "rating": 4.5, "coordinates": {"latitude": 49.41271, "longitude": 8.71322}, "transactions": [], "price": "\u20ac\u20ac\u20ac", "location": {"address1": "Hauptstr. 213", "address2": null, "address3": null, "city": "Heidelberg", "zip_code": "69117", "country": "DE", "state": "BW", "display_address": ["Hauptstr. 213", "69117 Heidelberg"]}, "phone": "+496221502980", "display_phone": "06221 502980", "distance": 1958.905182547357}, {"id": "CZd526LTMFj3nYPWy7Ehew", "alias": "istanbul-heidelberg-2", "name": "Istanbul", "image_url": "https://s3-media4.fl.yelpcdn.com/bphoto/dAbLnc8aY8-MfPDUhLc_GQ/o.jpg", "is_closed": false, "url": "https://www.yelp.de/biz/istanbul-heidelberg-2?adjust_creative=wpmf2GNsNi2Y2eWo6_K1VQ&utm_campaign=yelp_api_v3&utm_medium=api_v3_business_search&utm_source=wpmf2GNsNi2Y2eWo6_K1VQ", "review_count": 3, "categories": [{"alias": "kebab", "title": "D\u00f6ner & Kebab"}, {"alias": "pizza", "title": "Pizza"}], "rating": 4.5, "coordinates": {"latitude": 49.4083822601061, "longitude": 8.6888879620899}, "transactions": [], "price": "\u20ac", "location": {"address1": "Bergheimerstr.35", "address2": "", "address3": "", "city": "Heidelberg", "zip_code": "69115", "country": "DE", "state": "BW", "display_address": ["Bergheimerstr.35", "69115 Heidelberg"]}, "phone": "+4962216738121", "display_phone": "06221 6738121", "distance": 678.3438571795831}, {"id": "G8xqTNG6Lhdj9A6FGSRxOw", "alias": "pop-restaurant-heidelberg", "name": "POP-Restaurant", "image_url": "https://s3-media2.fl.yelpcdn.com/bphoto/LtzEFDhs0ZZh5DLPlMwzFw/o.jpg", "is_closed": false, "url": "https://www.yelp.de/biz/pop-restaurant-heidelberg?adjust_creative=wpmf2GNsNi2Y2eWo6_K1VQ&utm_campaign=yelp_api_v3&utm_medium=api_v3_business_search&utm_source=wpmf2GNsNi2Y2eWo6_K1VQ", "review_count": 11, "categories": [{"alias": "italian", "title": "Italienisch"}], "rating": 4.5, "coordinates": {"latitude": 49.4123, "longitude": 8.70763}, "transactions": [], "price": "\u20ac\u20ac", "location": {"address1": "Untere Str. 17", "address2": null, "address3": null, "city": "Heidelberg", "zip_code": "69117", "country": "DE", "state": "BW", "display_address": ["Untere Str. 17", "69117 Heidelberg"]}, "phone": "+49622125559", "display_phone": "06221 25559", "distance": 1613.8506801225583}, {"id": "20R0JShEBTMNh1BR4aZADg", "alias": "linde-heidelberg", "name": "Linde", "image_url": "https://s3-media1.fl.yelpcdn.com/bphoto/esjt_t53vNyRPtM8EBoGmg/o.jpg", "is_closed": false, "url": "https://www.yelp.de/biz/linde-heidelberg?adjust_creative=wpmf2GNsNi2Y2eWo6_K1VQ&utm_campaign=yelp_api_v3&utm_medium=api_v3_business_search&utm_source=wpmf2GNsNi2Y2eWo6_K1VQ", "review_count": 33, "categories": [{"alias": "spanish", "title": "Spanisch"}, {"alias": "beergarden", "title": "Biergarten"}], "rating": 4.5, "coordinates": {"latitude": 49.3778, "longitude": 8.69304}, "transactions": [], "price": "\u20ac\u20ac\u20ac", "location": {"address1": "Bierhelderweg 2", "address2": null, "address3": null, "city": "Heidelberg", "zip_code": "69126", "country": "DE", "state": "BW", "display_address": ["Bierhelderweg 2", "69126 Heidelberg"]}, "phone": "+496221307800", "display_phone": "06221 307800", "distance": 2746.6582773364225}, {"id": "0-vpLNyx2NMbg8mEbrMixg", "alias": "schmelzpunkt-schokolade-and-eiskrem-heidelberg", "name": "Schmelzpunkt Schokolade & Eiskrem", "image_url": "https://s3-media4.fl.yelpcdn.com/bphoto/S9xtH-bqhKqkaxXu829pcw/o.jpg", "is_closed": false, "url": "https://www.yelp.de/biz/schmelzpunkt-schokolade-and-eiskrem-heidelberg?adjust_creative=wpmf2GNsNi2Y2eWo6_K1VQ&utm_campaign=yelp_api_v3&utm_medium=api_v3_business_search&utm_source=wpmf2GNsNi2Y2eWo6_K1VQ", "review_count": 39, "categories": [{"alias": "cafes", "title": "Caf\u00e9"}, {"alias": "icecream", "title": "Eisdiele & Frozen Yogurt"}], "rating": 4.0, "coordinates": {"latitude": 49.411, "longitude": 8.70145}, "transactions": [], "price": "\u20ac\u20ac", "location": {"address1": "Hauptstr. 90", "address2": null, "address3": null, "city": "Heidelberg", "zip_code": "69117", "country": "DE", "state": "BW", "display_address": ["Hauptstr. 90", "69117 Heidelberg"]}, "phone": "+4962215860559", "display_phone": "06221 5860559", "distance": 1198.3186139717725}, {"id": "ipBpHcPo25rYn3d4RD29Zg", "alias": "my-currywurst-heidelberg", "name": "My Currywurst", "image_url": "https://s3-media4.fl.yelpcdn.com/bphoto/jYX8RBtjedgFTT3I-C70Mg/o.jpg", "is_closed": false, "url": "https://www.yelp.de/biz/my-currywurst-heidelberg?adjust_creative=wpmf2GNsNi2Y2eWo6_K1VQ&utm_campaign=yelp_api_v3&utm_medium=api_v3_business_search&utm_source=wpmf2GNsNi2Y2eWo6_K1VQ", "review_count": 3, "categories": [{"alias": "currysausage", "title": "Currywurst"}], "rating": 5.0, "coordinates": {"latitude": 49.41175, "longitude": 8.70847}, "transactions": [], "price": "\u20ac", "location": {"address1": "Hauptstr. 166", "address2": "", "address3": null, "city": "Heidelberg", "zip_code": "69117", "country": "DE", "state": "BW", "display_address": ["Hauptstr. 166", "69117 Heidelberg"]}, "phone": "+4962217272609", "display_phone": "06221 7272609", "distance": 1617.649295659467}, {"id": "lnz0c_Ci7VcQzOnvCAUtFw", "alias": "tuk-tuk-heidelberg", "name": "Tuk-Tuk", "image_url": "https://s3-media4.fl.yelpcdn.com/bphoto/OdyId7yP0dcxbwfU8eRssw/o.jpg", "is_closed": false, "url": "https://www.yelp.de/biz/tuk-tuk-heidelberg?adjust_creative=wpmf2GNsNi2Y2eWo6_K1VQ&utm_campaign=yelp_api_v3&utm_medium=api_v3_business_search&utm_source=wpmf2GNsNi2Y2eWo6_K1VQ", "review_count": 4, "categories": [{"alias": "thai", "title": "Thail\u00e4ndisch"}], "rating": 4.0, "coordinates": {"latitude": 49.405494300315, "longitude": 8.68798613548279}, "transactions": [], "price": "\u20ac", "location": {"address1": "Bahnhofstr. 37", "address2": "", "address3": "", "city": "Heidelberg", "zip_code": "69115", "country": "DE", "state": "BW", "display_address": ["Bahnhofstr. 37", "69115 Heidelberg"]}, "phone": "+4962214306189", "display_phone": "06221 4306189", "distance": 409.2471870435862}, {"id": "bXwGKxKjbJp7gO-vT8FnNw", "alias": "asia-bistro-heidelberg", "name": "Asia Bistro", "image_url": "https://s3-media3.fl.yelpcdn.com/bphoto/qQq4ALX7S81obA9Hy-4hHA/o.jpg", "is_closed": false, "url": "https://www.yelp.de/biz/asia-bistro-heidelberg?adjust_creative=wpmf2GNsNi2Y2eWo6_K1VQ&utm_campaign=yelp_api_v3&utm_medium=api_v3_business_search&utm_source=wpmf2GNsNi2Y2eWo6_K1VQ", "review_count": 3, "categories": [{"alias": "bistros", "title": "Bistro"}, {"alias": "panasian", "title": "Asiatisch"}], "rating": 4.5, "coordinates": {"latitude": 49.4054, "longitude": 8.67401}, "transactions": [], "price": "\u20ac", "location": {"address1": "Kurf\u00fcrstenanlage 62", "address2": "", "address3": null, "city": "Heidelberg", "zip_code": "69115", "country": "DE", "state": "BW", "display_address": ["Kurf\u00fcrstenanlage 62", "69115 Heidelberg"]}, "phone": "+4962214321444", "display_phone": "06221 4321444", "distance": 1286.785549163539}, {"id": "G1kDT7wbMQBFs5PGTdrm6g", "alias": "same-same-heidelberg", "name": "Same Same", "image_url": "https://s3-media4.fl.yelpcdn.com/bphoto/QKjo_C4x3f6iyp-Pdqh1ug/o.jpg", "is_closed": false, "url": "https://www.yelp.de/biz/same-same-heidelberg?adjust_creative=wpmf2GNsNi2Y2eWo6_K1VQ&utm_campaign=yelp_api_v3&utm_medium=api_v3_business_search&utm_source=wpmf2GNsNi2Y2eWo6_K1VQ", "review_count": 36, "categories": [{"alias": "sushi", "title": "Sushi"}], "rating": 4.5, "coordinates": {"latitude": 49.412942, "longitude": 8.70968}, "transactions": [], "price": "\u20ac\u20ac", "location": {"address1": "Steingasse 3", "address2": "", "address3": "", "city": "Heidelberg", "zip_code": "69117", "country": "DE", "state": "BW", "display_address": ["Steingasse 3", "69117 Heidelberg"]}, "phone": "+4962217291737", "display_phone": "06221 7291737", "distance": 1774.5615347763846}, {"id": "ooy6Oyu8B4HUi-_kDcIlcw", "alias": "taj-mahal-heidelberg", "name": "Taj Mahal", "image_url": "https://s3-media1.fl.yelpcdn.com/bphoto/trywEec5bVuQ4_7DS_AcOg/o.jpg", "is_closed": false, "url": "https://www.yelp.de/biz/taj-mahal-heidelberg?adjust_creative=wpmf2GNsNi2Y2eWo6_K1VQ&utm_campaign=yelp_api_v3&utm_medium=api_v3_business_search&utm_source=wpmf2GNsNi2Y2eWo6_K1VQ", "review_count": 38, "categories": [{"alias": "bars", "title": "Bar"}, {"alias": "indpak", "title": "Indisch"}], "rating": 4.0, "coordinates": {"latitude": 49.4081199, "longitude": 8.67381}, "transactions": [], "price": "\u20ac\u20ac\u20ac", "location": {"address1": "Bergheimerstr. 134", "address2": null, "address3": null, "city": "Heidelberg", "zip_code": "69115", "country": "DE", "state": "BW", "display_address": ["Bergheimerstr. 134", "69115 Heidelberg"]}, "phone": "+496221166461", "display_phone": "06221 166461", "distance": 1426.0864872802888}, {"id": "7JtTiCo6RadyBnXJfmTRsw", "alias": "gasthaus-zum-goldener-l\u00f6we-eppelheim", "name": "Gasthaus zum Goldener L\u00f6we", "image_url": "https://s3-media1.fl.yelpcdn.com/bphoto/bZ8c8vuUDpw0JC3KIeGfOA/o.jpg", "is_closed": false, "url": "https://www.yelp.de/biz/gasthaus-zum-goldener-l%C3%B6we-eppelheim?adjust_creative=wpmf2GNsNi2Y2eWo6_K1VQ&utm_campaign=yelp_api_v3&utm_medium=api_v3_business_search&utm_source=wpmf2GNsNi2Y2eWo6_K1VQ", "review_count": 39, "categories": [{"alias": "baden", "title": "Badisch"}], "rating": 4.5, "coordinates": {"latitude": 49.3990878551987, "longitude": 8.62716152753569}, "transactions": [], "price": "\u20ac\u20ac", "location": {"address1": "Hauptstr. 139", "address2": null, "address3": null, "city": "Eppelheim", "zip_code": "69214", "country": "DE", "state": "BW", "display_address": ["Hauptstr. 139", "69214 Eppelheim"]}, "phone": "+496221736920", "display_phone": "06221 736920", "distance": 4650.3031671742465}, {"id": "18BDu_ce5zC3W1ncSOo4yQ", "alias": "die-kuh-die-lacht-heidelberg", "name": "Die Kuh die lacht", "image_url": "https://s3-media3.fl.yelpcdn.com/bphoto/Uhzh0xShTg3WDpSiSl28hA/o.jpg", "is_closed": false, "url": "https://www.yelp.de/biz/die-kuh-die-lacht-heidelberg?adjust_creative=wpmf2GNsNi2Y2eWo6_K1VQ&utm_campaign=yelp_api_v3&utm_medium=api_v3_business_search&utm_source=wpmf2GNsNi2Y2eWo6_K1VQ", "review_count": 32, "categories": [{"alias": "burgers", "title": "Burger"}, {"alias": "hotdogs", "title": "Fast Food"}], "rating": 4.0, "coordinates": {"latitude": 49.41171, "longitude": 8.7058199}, "transactions": [], "price": "\u20ac\u20ac", "location": {"address1": "Hauptstr. 133", "address2": "", "address3": "", "city": "Heidelberg", "zip_code": "69117", "country": "DE", "state": "BW", "display_address": ["Hauptstr. 133", "69117 Heidelberg"]}, "phone": "+4962217276455", "display_phone": "06221 7276455", "distance": 1473.9567293385667}, {"id": "ZyjldIc3J8vi4nQR4caDxw", "alias": "da-vinci-heidelberg", "name": "Da Vinci", "image_url": "https://s3-media3.fl.yelpcdn.com/bphoto/GzZe0DOyAdhoTYmXzwLb0g/o.jpg", "is_closed": false, "url": "https://www.yelp.de/biz/da-vinci-heidelberg?adjust_creative=wpmf2GNsNi2Y2eWo6_K1VQ&utm_campaign=yelp_api_v3&utm_medium=api_v3_business_search&utm_source=wpmf2GNsNi2Y2eWo6_K1VQ", "review_count": 44, "categories": [{"alias": "pizza", "title": "Pizza"}, {"alias": "italian", "title": "Italienisch"}], "rating": 4.0, "coordinates": {"latitude": 49.40563, "longitude": 8.68883}, "transactions": [], "price": "\u20ac\u20ac\u20ac", "location": {"address1": "Bahnhofstr. 29", "address2": null, "address3": null, "city": "Heidelberg", "zip_code": "69115", "country": "DE", "state": "BW", "display_address": ["Bahnhofstr. 29", "69115 Heidelberg"]}, "phone": "+49622128660", "display_phone": "06221 28660", "distance": 398.5141711588719}], "total": 691, "region": {"center": {"longitude": 8.691215515136719, "latitude": 49.40247275488184}}}
